[
    {
        "uid": 1831,
        "name": "Knowledge Park, Phayao, Thailand (อุทยานการเรียนรู้กว๊านพะเยา)",
        "lat": 19.200226,
        "lng": 99.893048,
        "country": "Thailand"
    },
    {
        "uid": 2591,
        "name": "Balok Baru, Kuantan, Pahang, Malaysia",
        "lat": 3.960644,
        "lng": 103.382158,
        "country": "Indonesia"
    },
    {
        "uid": 1814,
        "name": "Highway District, Samut Sakhon, Thailand (แขวงการทางสมุทรสาคร)",
        "lat": 13.7054879,
        "lng": 100.315622,
        "country": "Thailand"
    },
    {
        "uid": 13841,
        "name": "Maros, Indonesia",
        "lat": -4.997,
        "lng": 119.57,
        "country": "Indonesia"
    },
    {
        "uid": 9501,
        "name": "Mukah, Sarawak, Malaysia",
        "lat": 2.883238,
        "lng": 112.019742,
        "country": "Indonesia"
    },
    {
        "uid": 5107,
        "name": "Government Center, Rayong, Thailand (ศูนย์ราชการระยอง)",
        "lat": 12.7066,
        "lng": 101.18055,
        "country": "Thailand"
    },
    {
        "uid": 13636,
        "name": "72nd Anniversary King Bhumibol Public Park, Uttaradit, Thailand (สวนมหามงคลเฉลิมพระชนมพรรษา 6 รอบ 5 ธันวาคม 2552 อุตรดิตถ์)",
        "lat": 17.631352,
        "lng": 100.09896,
        "country": "Thailand"
    },
    {
        "uid": 13654,
        "name": "Sorong, Indonesia",
        "lat": -0.8634105,
        "lng": 131.2544805,
        "country": "Indonesia"
    },
    {
        "uid": 2622,
        "name": "Kemaman, Terengganu, Malaysia",
        "lat": 4.262121,
        "lng": 103.425778,
        "country": "Indonesia"
    },
    {
        "uid": 9492,
        "name": "Segamat, Johor, Malaysia",
        "lat": 2.493914,
        "lng": 102.862694,
        "country": "Indonesia"
    },
    {
        "uid": 13644,
        "name": "Bengkulu, Indonesia",
        "lat": -3.865,
        "lng": 102.312,
        "country": "Indonesia"
    },
    {
        "uid": 2616,
        "name": "Sri Aman, Sarawak, Malaysia",
        "lat": 1.219656,
        "lng": 111.464792,
        "country": "Indonesia"
    },
    {
        "uid": 8294,
        "name": "Kemayoran, Indonesia",
        "lat": -6.155,
        "lng": 106.846,
        "country": "Indonesia"
    },
    {
        "uid": 8288,
        "name": "Pekanbaru, Indonesia",
        "lat": 0.46667,
        "lng": 101.4666,
        "country": "Indonesia"
    },
    {
        "uid": 12795,
        "name": "T.Meechai A.Muang Nongkhai Province, Thailand (ต.มีชัย อ.เมืองหนองคาย จ.หนองคาย)",
        "lat": 17.87748,
        "lng": 102.728925,
        "country": "Vietnam"
    },
    {
        "uid": 14641,
        "name": "Thái Bình/Trạm quan trắc khí tại Thái Thụy, Vietnam",
        "lat": 20.461641,
        "lng": 106.516972,
        "country": "Vietnam"
    },
    {
        "uid": 4693,
        "name": "Bangkok University Rangsit Campus, Pathum Thani, Thailand (มหาวิทยาลัยกรุงเทพ วิทยาเขตรังสิต)",
        "lat": 14.03742,
        "lng": 100.605216,
        "country": "Thailand"
    },
    {
        "uid": 8114,
        "name": "Temburong, Brunei",
        "lat": 4.6204128,
        "lng": 115.141484,
        "country": "Indonesia"
    },
    {
        "uid": 10481,
        "name": "Pak Prak, Kanchanaburi, Kanchanaburi, Thailand (ต.ปากแพรก อ.เมือง จ.กาญจนบุรี)",
        "lat": 14.022376,
        "lng": 99.536195,
        "country": "Thailand"
    },
    {
        "uid": 1823,
        "name": "Lampang Meteorological Station, Thailand (สถานีอุตุนิยมวิทยาลำปาง)",
        "lat": 18.2783333,
        "lng": 99.5064666,
        "country": "Thailand"
    },
    {
        "uid": 13647,
        "name": "Malang, Indonesia",
        "lat": -7.9551897,
        "lng": 112.6119383,
        "country": "Indonesia"
    },
    {
        "uid": 1849,
        "name": "General Education Office, Chonburi, Thailand (สำนักงานสามัญศึกษาชลบุรี)",
        "lat": 13.35461667,
        "lng": 100.9792167,
        "country": "Thailand"
    },
    {
        "uid": 2618,
        "name": "Kuala Selangor, Selangor, Malaysia",
        "lat": 3.321308,
        "lng": 101.256242,
        "country": "Indonesia"
    },
    {
        "uid": 2614,
        "name": "Sarikei, Sarawak, Malaysia",
        "lat": 2.132809,
        "lng": 111.52287,
        "country": "Indonesia"
    },
    {
        "uid": 8289,
        "name": "Jambi, Indonesia",
        "lat": -1.6318964,
        "lng": 103.6414547,
        "country": "Indonesia"
    },
    {
        "uid": 10490,
        "name": "Pangkalanbun, Indonesia",
        "lat": -2.676583,
        "lng": 111.626448,
        "country": "Indonesia"
    },
    {
        "uid": 8117,
        "name": "Pekan Tutong, Brunei",
        "lat": 4.8140524,
        "lng": 114.6608562,
        "country": "Indonesia"
    },
    {
        "uid": 2595,
        "name": "Kg. Air Putih, Taiping, Perak, Malaysia",
        "lat": 4.89885,
        "lng": 100.679106,
        "country": "Indonesia"
    },
    {
        "uid": 8342,
        "name": "Palangka Raya, Indonesia",
        "lat": -2.22611,
        "lng": 113.945,
        "country": "Indonesia"
    },
    {
        "uid": 2615,
        "name": "Sibu, Sarawak, Malaysia",
        "lat": 2.314408,
        "lng": 111.831916,
        "country": "Indonesia"
    },
    {
        "uid": 8287,
        "name": "Medan, Indonesia",
        "lat": 3.59,
        "lng": 98.85,
        "country": "Indonesia"
    },
    {
        "uid": 13645,
        "name": "Kotabaru, Indonesia",
        "lat": -3.3,
        "lng": 116.17,
        "country": "Indonesia"
    },
    {
        "uid": 1870,
        "name": "Provincial Health Office, Loei, Thailand (สำนักงานสาธารณสุขจังหวัดเลย)",
        "lat": 17.4525229,
        "lng": 101.7272395,
        "country": "Thailand"
    },
    {
        "uid": 2607,
        "name": "Bintulu, Sarawak, Malaysia",
        "lat": 3.177084,
        "lng": 113.041091,
        "country": "Indonesia"
    },
    {
        "uid": 2581,
        "name": "Alor Setar, Kedah, Malaysia",
        "lat": 6.137244,
        "lng": 100.346815,
        "country": "Thailand"
    },
    {
        "uid": 9494,
        "name": "Kluang, Johor, Malaysia",
        "lat": 2.037882,
        "lng": 103.312063,
        "country": "Indonesia"
    },
    {
        "uid": 1868,
        "name": "Provincial Administrative Stadium, Lamphun, Thailand (สนามกีฬาองค์การบริหารส่วนจังหวัดลำพูน)",
        "lat": 18.567194,
        "lng": 99.038639,
        "country": "Thailand"
    },
    {
        "uid": 13630,
        "name": "Meteorological stations, Nakhon Phanom, Thailand (สถานีอุตุนิยมวิทยานครพนม)",
        "lat": 17.412345,
        "lng": 104.7786123,
        "country": "Vietnam"
    },
    {
        "uid": 1664,
        "name": "East, Singapore",
        "lat": 1.3645924,
        "lng": 103.9477547,
        "country": "Indonesia"
    },
    {
        "uid": 8116,
        "name": "Kuala Belait, Brunei",
        "lat": 4.5831986,
        "lng": 114.2212174,
        "country": "Indonesia"
    },
    {
        "uid": 2604,
        "name": "Kota Kinabalu, Sabah, Malaysia",
        "lat": 5.89372,
        "lng": 116.04327,
        "country": "Indonesia"
    },
    {
        "uid": 9496,
        "name": "Rompin, Pahang, Malaysia",
        "lat": 2.926645,
        "lng": 103.419198,
        "country": "Indonesia"
    },
    {
        "uid": 8688,
        "name": "United Nations International School of Hanoi, Vietnam (Trường Quốc tế Liên Hợp Quốc Hà Nội)",
        "lat": 21.0811211,
        "lng": 105.8180306,
        "country": "Vietnam"
    },
    {
        "uid": 14903,
        "name": "Talang Betutu Palembang, Indonesia",
        "lat": -2.94,
        "lng": 104.7,
        "country": "Indonesia"
    },
    {
        "uid": 2586,
        "name": "Bandaraya Melaka, Melaka, Malaysia",
        "lat": 2.190936,
        "lng": 102.257058,
        "country": "Indonesia"
    },
    {
        "uid": 13655,
        "name": "Supadio, Indonesia",
        "lat": -0.14,
        "lng": 109.45,
        "country": "Indonesia"
    },
    {
        "uid": 2597,
        "name": "Seri Manjung, Perak, Malaysia",
        "lat": 4.200344,
        "lng": 100.663358,
        "country": "Indonesia"
    },
    {
        "uid": 1828,
        "name": "Natural Resources and Environment Office, Chiangrai, Thailand (สำนักงานทรัพยากรธรรมชาติและสิ่งแวดล้อมจังหวัดเชียงราย)",
        "lat": 19.909217,
        "lng": 99.823467,
        "country": "Thailand"
    },
    {
        "uid": 2589,
        "name": "Port Dickson, Negeri Sembilan, Malaysia",
        "lat": 2.441383,
        "lng": 101.866858,
        "country": "Indonesia"
    },
    {
        "uid": 8293,
        "name": "Samarinda, Indonesia",
        "lat": -0.4825,
        "lng": 117.1563,
        "country": "Indonesia"
    },
    {
        "uid": 2611,
        "name": "Limbang, Sarawak, Malaysia",
        "lat": 4.758891,
        "lng": 115.013667,
        "country": "Indonesia"
    },
    {
        "uid": 5506,
        "name": "Viet Tri, Vietnam (Tp Việt Trì)",
        "lat": 21.33847,
        "lng": 105.3673,
        "country": "Vietnam"
    },
    {
        "uid": 2626,
        "name": "Cheras,Kuala Lumpur, Wilayah Persekutuan, Malaysia",
        "lat": 3.106236,
        "lng": 101.717917,
        "country": "Indonesia"
    },
    {
        "uid": 9013,
        "name": "Mae Pa,Mae Sot,Tak, Thailand (ต.แม่ปะ อ.แม่สอด จ.ตาก)",
        "lat": 16.734413,
        "lng": 98.566961,
        "country": "Thailand"
    },
    {
        "uid": 2588,
        "name": "Nilai, Negeri Sembilan, Malaysia",
        "lat": 2.821692,
        "lng": 101.811486,
        "country": "Indonesia"
    },
    {
        "uid": 8322,
        "name": "Health Promotion Hospital Ban Khao Hin,Chonburi, Thailand (โรงพยาบาลส่งเสริมสุขภาพตำบลบ้านเขาหิน ชลบุรี)",
        "lat": 13.054551,
        "lng": 101.098128,
        "country": "Thailand"
    },
    {
        "uid": 2627,
        "name": "Labuan, Wilayah Persekutuan, Malaysia",
        "lat": 5.298107,
        "lng": 115.232106,
        "country": "Indonesia"
    },
    {
        "uid": 9014,
        "name": "Tha Tum, Si Maha Phot, Prachin Buri, Thailand (ต.ท่าตูม อ.ศรีมหาโพธิ จ.ปราจีนบุรี)",
        "lat": 13.917563,
        "lng": 101.590529,
        "country": "Thailand"
    },
    {
        "uid": 12797,
        "name": "Nai Mueang,Mueang,Ubon Ratchathani , Thailand (ต.ในเมือง อ.เมือง จ.อุบลราชธานี)",
        "lat": 15.245413,
        "lng": 104.846219,
        "country": "Vietnam"
    },
    {
        "uid": 13651,
        "name": "Semarang, Indonesia",
        "lat": -6.985,
        "lng": 110.381,
        "country": "Indonesia"
    },
    {
        "uid": 12796,
        "name": "Lat Yai,Mueang,Samut Songkhram, Thailand (ต.ลาดใหญ่ อ.เมือง จ.สมุทรสงคราม)",
        "lat": 13.428581,
        "lng": 100.024664,
        "country": "Thailand"
    },
    {
        "uid": 1665,
        "name": "West, Singapore",
        "lat": 1.3880078,
        "lng": 103.698064,
        "country": "Indonesia"
    },
    {
        "uid": 2623,
        "name": "Kuala Terengganu, Terengganu, Malaysia",
        "lat": 5.308094,
        "lng": 103.120392,
        "country": "Indonesia"
    },
    {
        "uid": 2606,
        "name": "Tawau, Sabah, Malaysia",
        "lat": 4.249786,
        "lng": 117.935864,
        "country": "Indonesia"
    },
    {
        "uid": 13631,
        "name": "Meteorological stations, Sakon Nakhon, Thailand (สถานีอุตุนิยมวิทยาสกลนคร)",
        "lat": 17.15662,
        "lng": 104.133216,
        "country": "Vietnam"
    },
    {
        "uid": 1830,
        "name": "Phrae Meteorological Station, Thailand (สถานีอุตุนิยมวิทยาแพร่)",
        "lat": 18.1283666,
        "lng": 100.1624333,
        "country": "Thailand"
    },
    {
        "uid": 9498,
        "name": "Besut, Terengganu, Malaysia",
        "lat": 5.748449,
        "lng": 102.515632,
        "country": "Thailand"
    },
    {
        "uid": 10484,
        "name": "Tangkak, Johor, Malaysia",
        "lat": 2.294794,
        "lng": 102.571595,
        "country": "Indonesia"
    },
    {
        "uid": 9556,
        "name": "Kota Bharu, Kelantan, Malaysia",
        "lat": 6.147431,
        "lng": 102.249236,
        "country": "Thailand"
    },
    {
        "uid": 14893,
        "name": "Manila US Embassy, Philippines",
        "lat": 14.57711,
        "lng": 120.9778,
        "country": "Philippines"
    },
    {
        "uid": 13505,
        "name": "Tanjung Harapan, Indonesia",
        "lat": 2.83,
        "lng": 117.36,
        "country": "Indonesia"
    },
    {
        "uid": 9493,
        "name": "Batu Pahat, Johor, Malaysia",
        "lat": 1.919323,
        "lng": 102.866618,
        "country": "Indonesia"
    },
    {
        "uid": 2593,
        "name": "Jerantut, Pahang, Malaysia",
        "lat": 3.94836,
        "lng": 102.366632,
        "country": "Indonesia"
    },
    {
        "uid": 8324,
        "name": "Health Promotion Hospital Sob Pad, Lampang, Thailand (โรงพยาบาลส่งเสริมสุขภาพตำบลบ้านสบป้าด ลำปาง)",
        "lat": 18.2508166,
        "lng": 99.76395,
        "country": "Thailand"
    },
    {
        "uid": 2610,
        "name": "Kuching, Sarawak, Malaysia",
        "lat": 1.562229,
        "lng": 110.388958,
        "country": "Indonesia"
    },
    {
        "uid": 1825,
        "name": "Nakhonsawan Irrigation , Nakhon Sawan, Thailand (โครงการชลประทานนครสวรรค์)",
        "lat": 15.68623,
        "lng": 100.110556,
        "country": "Thailand"
    },
    {
        "uid": 9497,
        "name": "Temerloh, Pahang, Malaysia",
        "lat": 3.471603,
        "lng": 102.376406,
        "country": "Indonesia"
    },
    {
        "uid": 13637,
        "name": "Nong Prajak Public Park, Udon Thani, Thailand (สวนสาธารณะหนองประจักษ์ อุดรธานี)",
        "lat": 17.414174,
        "lng": 102.780926,
        "country": "Vietnam"
    },
    {
        "uid": 1867,
        "name": "Municipality Office, Nan, Thailand (สำนักงานเทศบาลเมืองน่าน)",
        "lat": 18.7888833,
        "lng": 100.7763166,
        "country": "Thailand"
    },
    {
        "uid": 9500,
        "name": "Samalaju, Sarawak, Malaysia",
        "lat": 3.537059,
        "lng": 113.295168,
        "country": "Indonesia"
    },
    {
        "uid": 3688,
        "name": "Khonkaen, Thailand (ส่วนอุทกวิทยา สำนักงานทรัพยากรน้ำภาค 4 ขอนแก่น)",
        "lat": 16.44538333,
        "lng": 102.83525,
        "country": "Vietnam"
    },
    {
        "uid": 2599,
        "name": "Kangar, Perlis, Malaysia",
        "lat": 6.429922,
        "lng": 100.211069,
        "country": "Thailand"
    },
    {
        "uid": 2609,
        "name": "Kapit, Sarawak, Malaysia",
        "lat": 2.014498,
        "lng": 112.92736,
        "country": "Indonesia"
    },
    {
        "uid": 8292,
        "name": "Banjarbaru, Indonesia",
        "lat": -3.475,
        "lng": 114.856,
        "country": "Indonesia"
    },
    {
        "uid": 13683,
        "name": "Hưng Yên/Sở TNMT - 437 Nguyễn Văn Linh, Tp Hưng Yên, Vietnam",
        "lat": 20.661683,
        "lng": 106.058761,
        "country": "Vietnam"
    },
    {
        "uid": 13628,
        "name": "Polytechnic College, Trang, Thailand (วิทยาลัยสารพัดช่างตรัง)",
        "lat": 7.570238,
        "lng": 99.588743,
        "country": "Thailand"
    },
    {
        "uid": 1832,
        "name": "Maesai Health Office, Chiangrai, Thailand (สำนักงานสาธารณสุขอำเภอแม่สาย เชียงราย)",
        "lat": 20.439944444444,
        "lng": 99.913666666667,
        "country": "Thailand"
    },
    {
        "uid": 13662,
        "name": "Trà Vinh/xã Dân Thành, TX Duyên Hải, Vietnam",
        "lat": 9.599143,
        "lng": 106.51985,
        "country": "Vietnam"
    },
    {
        "uid": 1863,
        "name": "Wang Yen Subdistrict Administrative, Chachoengsao, Thailand (องค์การบริหารส่วนตำบลวังเย็น)",
        "lat": 13.5885,
        "lng": 101.2863333,
        "country": "Thailand"
    },
    {
        "uid": 5192,
        "name": "Danzhou (儋州)",
        "lat": 19.521134,
        "lng": 109.580811,
        "country": "Vietnam"
    },
    {
        "uid": 13633,
        "name": "Suphan Buri Provincial Central Stadium, Thailand (สนามกีฬากลางจังหวัดสุพรรณบุรี)",
        "lat": 14.476214,
        "lng": 100.086095,
        "country": "Thailand"
    },
    {
        "uid": 8503,
        "name": "Huai Kon, Chaloem Phra Kiat, Nan, Thailand (ต.ห้วยโก๋น อ.เฉลิมพระเกียรติ จ.น่าน)",
        "lat": 19.5759666,
        "lng": 101.0815166,
        "country": "Thailand"
    },
    {
        "uid": 1829,
        "name": "Natural Resources and Environment Office, Mae Hongson, Thailand (สำนักงานทรัพยากรธรรมชาติและสิ่งแวดล้อมจังหวัดแม่ฮ่องสอน)",
        "lat": 19.30455,
        "lng": 97.97165,
        "country": "Thailand"
    },
    {
        "uid": 13653,
        "name": "Sleman, Indonesia",
        "lat": -7.731,
        "lng": 110.354,
        "country": "Indonesia"
    },
    {
        "uid": 13659,
        "name": "Tây Ninh/Thị xã Tràng Bảng, Vietnam",
        "lat": 11.030287,
        "lng": 106.35631,
        "country": "Vietnam"
    },
    {
        "uid": 6817,
        "name": "City Hall, Chiangmai, Thailand (ศาลากลางเชียงใหม่)",
        "lat": 18.840732,
        "lng": 98.96978,
        "country": "Thailand"
    },
    {
        "uid": 2594,
        "name": "Jalan Tasek, Ipoh, Perak, Malaysia",
        "lat": 4.629444,
        "lng": 101.11665,
        "country": "Indonesia"
    },
    {
        "uid": 2603,
        "name": "Keningau, Sabah, Malaysia",
        "lat": 5.339317,
        "lng": 116.163658,
        "country": "Indonesia"
    },
    {
        "uid": 8645,
        "name": "Batam, Indonesia",
        "lat": 1.124,
        "lng": 104.126,
        "country": "Indonesia"
    },
    {
        "uid": 2582,
        "name": "Bakar Arang, Sg. Petani, Kedah, Malaysia",
        "lat": 5.629631,
        "lng": 100.467771,
        "country": "Thailand"
    },
    {
        "uid": 9490,
        "name": "Balik Pulau, Pulau Pinang, Malaysia",
        "lat": 5.337598,
        "lng": 100.214721,
        "country": "Indonesia"
    },
    {
        "uid": 1817,
        "name": "Na Phralan Police Station Saraburi, Thailand (สถานีตำรวจภูธรหน้าพระลาน สระบุรี)",
        "lat": 14.685833,
        "lng": 100.871996,
        "country": "Thailand"
    },
    {
        "uid": 2605,
        "name": "Sandakan, Sabah, Malaysia",
        "lat": 5.864467,
        "lng": 118.091089,
        "country": "Indonesia"
    }
]